1539162
1539162
Uvv      00003666 $GPRMC,091640.000,A,2225.9160,S,04734.2236,W,0.40,82.34,220714,,,A*58
Uvv      00004087 $GPGGA,091641.000,2225.9159,S,04734.2238,W,1,08,0.9,591.2,M,-4.1,M,,0000*42
Uvv      00006318 $GPRMC,091646.000,A,2225.9149,S,04734.2246,W,0.54,82.34,220714,,,A*57
Uvv      00007036 $GPGGA,091647.000,2225.9148,S,04734.2245,W,1,07,1.0,591.2,M,-4.1,M,,0000*49
Uvv      00009329 $GPRMC,091649.000,A,2225.9144,S,04734.2250,W,0.22,82.34,220714,,,A*53
Uvv      00010031 $GPGGA,091650.000,2225.9142,S,04734.2251,W,1,08,0.9,591.5,M,-4.1,M,,0000*40
Uvv      00012324 $GPRMC,091652.000,A,2225.9136,S,04734.2256,W,0.55,82.34,220714,,,A*5A
Uvv      00013042 $GPGGA,091653.000,2225.9134,S,04734.2257,W,1,08,0.9,592.6,M,-4.1,M,,0000*44
Uvv      00015709 $GPRMC,091655.000,A,2225.9134,S,04734.2259,W,0.67,82.34,220714,,,A*51
Uvv      00016053 $GPGGA,091656.000,2225.9135,S,04734.2260,W,1,08,0.9,594.0,M,-4.1,M,,0000*44
Uvv      00018346 $GPRMC,091658.000,A,2225.9135,S,04734.2263,W,0.52,82.34,220714,,,A*52
Uvv      00019048 $GPGGA,091659.000,2225.9136,S,04734.2263,W,1,08,0.9,595.2,M,-4.1,M,,0000*48
Uvv      00021341 $GPRMC,091701.000,A,2225.9139,S,04734.2259,W,1.06,101.95,220714,,,A*6B
Uvv      00022059 $GPGGA,091702.000,2225.9137,S,04734.2259,W,1,08,0.9,596.1,M,-4.1,M,,0000*4F
Uvv      00024336 $GPRMC,091704.000,A,2225.9129,S,04734.2265,W,0.09,101.95,220714,,,A*6E
Uvv      00025038 $GPGGA,091705.000,2225.9127,S,04734.2265,W,1,07,1.2,597.3,M,-4.1,M,,0000*40
Uvv      00027316 $GPRMC,091707.000,A,2225.9123,S,04734.2268,W,0.27,101.95,220714,,,A*66
Uvv      00028034 $GPGGA,091708.000,2225.9125,S,04734.2267,W,1,07,1.2,597.8,M,-4.1,M,,0000*46
Uvv      00030701 $GPRMC,091710.000,A,2225.9127,S,04734.2269,W,0.34,110.49,220714,,,A*66
Uvv      00031029 $GPGGA,091711.000,2225.9127,S,04734.2270,W,1,07,1.2,598.3,M,-4.1,M,,0000*4E
Uvv      00033322 $GPRMC,091713.000,A,2225.9123,S,04734.2272,W,0.39,110.49,220714,,,A*66
Uvv      00034071 $GPGGA,091714.000,2225.9120,S,04734.2273,W,1,08,0.9,599.0,M,-4.1,M,,0000*48
Uvv      00036348 $GPRMC,091716.000,A,2225.9114,S,04734.2277,W,0.30,110.49,220714,,,A*6B
Uvv      00037035 $GPGGA,091717.000,2225.9111,S,04734.2277,W,1,08,0.9,600.4,M,-4.1,M,,0000*4A
Uvv      00039328 $GPRMC,091719.000,A,2225.9104,S,04734.2277,W,0.97,110.49,220714,,,A*68
Uvv      00040030 $GPGGA,091720.000,2225.9102,S,04734.2276,W,1,08,0.9,601.2,M,-4.1,M,,0000*4A
Uvv      00042323 $GPRMC,091722.000,A,2225.9103,S,04734.2277,W,0.68,110.49,220714,,,A*67
Uvv      00043041 $GPGGA,091723.000,2225.9104,S,04734.2276,W,1,08,0.9,601.4,M,-4.1,M,,0000*49
Uvv      00045708 $GPRMC,091725.000,A,2225.9104,S,04734.2273,W,0.62,110.49,220714,,,A*69
Uvv      00046036 $GPGGA,091726.000,2225.9108,S,04734.2269,W,1,08,0.9,601.6,M,-4.1,M,,0000*4C
Uvv      00048345 $GPRMC,091728.000,A,2225.9117,S,04734.2263,W,1.77,120.64,220714,,,A*6E
Uvv      00049031 $GPGGA,091729.000,2225.9119,S,04734.2262,W,1,08,0.9,602.3,M,-4.1,M,,0000*4E
Uvv      00051340 $GPRMC,091731.000,A,2225.9120,S,04734.2255,W,0.21,121.72,220714,,,A*63
Uvv      00052042 $GPGGA,091732.000,2225.9121,S,04734.2254,W,1,08,0.9,602.4,M,-4.1,M,,0000*4D
Uvv      00054320 $GPRMC,091734.000,A,2225.9124,S,04734.2254,W,0.90,121.72,220714,,,A*69
Uvv      00055037 $GPGGA,091735.000,2225.9125,S,04734.2257,W,1,08,0.9,602.5,M,-4.1,M,,0000*4C
Uvv      00057331 $GPRMC,091737.000,A,2225.9125,S,04734.2261,W,0.99,121.72,220714,,,A*64
Uvv      00058033 $GPGGA,091738.000,2225.9125,S,04734.2262,W,1,08,0.9,603.0,M,-4.1,M,,0000*43
Uvv      00060716 $GPRMC,091740.000,A,2225.9126,S,04734.2263,W,0.67,121.72,220714,,,A*64
Uvv      00061043 $GPGGA,091741.000,2225.9123,S,04734.2261,W,1,08,0.9,603.0,M,-4.1,M,,0000*48
Uvv      00063321 $GPRMC,091743.000,A,2225.9124,S,04734.2260,W,0.52,110.34,220714,,,A*60
Uvv      00064054 $GPGGA,091744.000,2225.9126,S,04734.2261,W,1,08,0.9,602.4,M,-4.1,M,,0000*4D
Uvv      00066347 $GPRMC,091746.000,A,2225.9131,S,04734.2263,W,0.25,110.34,220714,,,A*62
Uvv      00067034 $GPGGA,091747.000,2225.9133,S,04734.2262,W,1,08,0.9,601.9,M,-4.1,M,,0000*47
Uvv      00069327 $GPRMC,091749.000,A,2225.9134,S,04734.2258,W,1.19,113.37,220714,,,A*6E
Uvv      00070029 $GPGGA,091750.000,2225.9137,S,04734.2256,W,1,08,0.9,601.6,M,-4.1,M,,0000*4D
Uvv      00072322 $GPRMC,091752.000,A,2225.9140,S,04734.2257,W,0.59,113.37,220714,,,A*6D
Uvv      00073055 $GPGGA,091753.000,2225.9140,S,04734.2257,W,1,08,0.9,601.0,M,-4.1,M,,0000*49
Uvv      00075692 $GPRMC,091755.000,A,2225.9140,S,04734.2262,W,0.79,121.00,220714,,,A*6B
Uvv      00076035 $GPGGA,091756.000,2225.9139,S,04734.2262,W,1,08,0.9,600.9,M,-4.1,M,,0000*4C
Uvv      00078313 $GPRMC,091758.000,A,2225.9136,S,04734.2264,W,0.69,121.00,220714,,,A*60
Uvv      00079015 $GPGGA,091759.000,2225.9139,S,04734.2265,W,1,08,0.9,600.6,M,-4.1,M,,0000*4B
Uvv      00081308 $GPRMC,091801.000,A,2225.9146,S,04734.2266,W,0.73,130.12,220714,,,A*6E
Uvv      00082025 $GPGGA,091802.000,2225.9148,S,04734.2266,W,1,08,0.9,600.2,M,-4.1,M,,0000*4B
Uvv      00084319 $GPRMC,091804.000,A,2225.9151,S,04734.2264,W,1.01,130.12,220714,,,A*6B
Uvv      00085021 $GPGGA,091805.000,2225.9152,S,04734.2261,W,1,08,0.9,599.9,M,-4.1,M,,0000*48
Uvv      00087330 $GPRMC,091807.000,A,2225.9159,S,04734.2260,W,0.92,143.86,220714,,,A*66
Uvv      00088032 $GPGGA,091808.000,2225.9160,S,04734.2261,W,1,08,0.9,599.5,M,-4.1,M,,0000*48
Uvv      00090699 $GPRMC,091810.000,A,2225.9159,S,04734.2259,W,1.93,127.04,220714,,,A*62
Uvv      00091027 $GPGGA,091811.000,2225.9154,S,04734.2260,W,1,08,0.9,598.9,M,-4.1,M,,0000*4B
Uvv      00093304 $GPRMC,091813.000,A,2225.9152,S,04734.2258,W,0.29,98.88,220714,,,A*5A
Uvv      00094022 $GPGGA,091814.000,2225.9153,S,04734.2259,W,1,08,0.9,598.6,M,-4.1,M,,0000*4C
Uvv      00096315 $GPRMC,091816.000,A,2225.9155,S,04734.2262,W,0.34,104.22,220714,,,A*69
Uvv      00097017 $GPGGA,091817.000,2225.9151,S,04734.2261,W,1,08,0.9,598.6,M,-4.1,M,,0000*46
Uvv      00099310 $GPRMC,091819.000,A,2225.9142,S,04734.2257,W,0.64,96.44,220714,,,A*59
Uvv      00100028 $GPGGA,091820.000,2225.9142,S,04734.2260,W,1,08,0.9,598.6,M,-4.1,M,,0000*41
Uvv      00102306 $GPRMC,091822.000,A,2225.9141,S,04734.2265,W,0.96,96.44,220714,,,A*5E
Uvv      00103023 $GPGGA,091823.000,2225.9140,S,04734.2263,W,1,07,1.3,598.3,M,-4.1,M,,0000*42
Uvv      00105691 $GPRMC,091825.000,A,2225.9136,S,04734.2250,W,2.35,93.67,220714,,,A*50
Uvv      00106018 $GPGGA,091826.000,2225.9136,S,04734.2249,W,1,08,0.9,597.9,M,-4.1,M,,0000*4F
Uvv      00108312 $GPRMC,091828.000,A,2225.9136,S,04734.2256,W,0.85,93.67,220714,,,A*52
Uvv      00109014 $GPGGA,091829.000,2225.9138,S,04734.2257,W,1,08,0.9,597.5,M,-4.1,M,,0000*4D
Uvv      00111307 $GPRMC,091831.000,A,2225.9142,S,04734.2254,W,0.94,93.67,220714,,,A*5B
Uvv      00112024 $GPGGA,091832.000,2225.9146,S,04734.2255,W,1,08,0.9,596.9,M,-4.1,M,,0000*41
Uvv      00114318 $GPRMC,091834.000,A,2225.9147,S,04734.2255,W,0.96,93.67,220714,,,A*58
Uvv      00115020 $GPGGA,091835.000,2225.9149,S,04734.2252,W,1,08,0.9,596.2,M,-4.1,M,,0000*45
Uvv      00117329 $GPRMC,091837.000,A,2225.9151,S,04734.2251,W,0.56,93.67,220714,,,A*54
Uvv      00118015 $GPGGA,091838.000,2225.9151,S,04734.2248,W,1,08,0.9,595.7,M,-4.1,M,,0000*4C
Uvv      00120714 $GPRMC,091840.000,A,2225.9159,S,04734.2242,W,1.77,101.02,220714,,,A*65
Uvv      00121026 $GPGGA,091841.000,2225.9165,S,04734.2239,W,1,08,0.9,596.1,M,-4.1,M,,0000*46
Uvv      00123335 $GPRMC,091843.000,A,2225.9176,S,04734.2234,W,0.52,107.14,220714,,,A*6D
Uvv      00124037 $GPGGA,091844.000,2225.9180,S,04734.2232,W,1,07,1.0,596.1,M,-4.1,M,,0000*44
Uvv      00126314 $GPRMC,091846.000,A,2225.9185,S,04734.2230,W,0.38,107.14,220714,,,A*6C
Uvv      00127016 $GPGGA,091847.000,2225.9190,S,04734.2231,W,1,07,1.0,595.7,M,-4.1,M,,0000*40
Uvv      00129309 $GPRMC,091849.000,A,2225.9195,S,04734.2226,W,0.49,114.04,220714,,,A*60
Uvv      00130011 $GPGGA,091850.000,2225.9196,S,04734.2224,W,1,07,1.0,595.1,M,-4.1,M,,0000*42
Uvv      00132414 $GPRMC,091852.000,A,2225.9190,S,04734.2218,W,1.96,102.92,220714,,,A*69
Uvv      00133022 $GPGGA,091853.000,2225.9185,S,04734.2216,W,1,07,1.0,595.0,M,-4.1,M,,0000*43
Uvv      00135690 $GPRMC,091855.000,A,2225.9181,S,04734.2213,W,0.49,102.92,220714,,,A*66
Uvv      00136033 $GPGGA,091856.000,2225.9179,S,04734.2210,W,1,07,1.0,594.7,M,-4.1,M,,0000*45
Uvv      00138311 $GPRMC,091858.000,A,2225.9169,S,04734.2206,W,1.22,100.60,220714,,,A*6A
Uvv      00139028 $GPGGA,091859.000,2225.9159,S,04734.2204,W,1,07,1.0,594.5,M,-4.1,M,,0000*4F
Uvv      00141306 $GPRMC,091901.000,A,2225.9144,S,04734.2204,W,1.09,83.22,220714,,,A*5F
Uvv      00142023 $GPGGA,091902.000,2225.9139,S,04734.2206,W,1,07,1.0,594.8,M,-4.1,M,,0000*49
Uvv      00144301 $GPRMC,091904.000,A,2225.9129,S,04734.2213,W,0.29,78.60,220714,,,A*56
Uvv      00145019 $GPGGA,091905.000,2225.9127,S,04734.2220,W,1,07,1.0,596.1,M,-4.1,M,,0000*4E
Uvv      00147296 $GPRMC,091907.000,A,2225.9125,S,04734.2229,W,0.51,82.13,220714,,,A*5E
Uvv      00148014 $GPGGA,091908.000,2225.9125,S,04734.2234,W,1,07,1.0,596.3,M,-4.1,M,,0000*46
Uvv      00150697 $GPRMC,091910.000,A,2225.9123,S,04734.2241,W,0.49,86.99,220714,,,A*5F
Uvv      00151025 $GPGGA,091911.000,2225.9121,S,04734.2243,W,1,08,0.9,596.7,M,-4.1,M,,0000*49
Uvv      00153302 $GPRMC,091913.000,A,2225.9110,S,04734.2246,W,1.41,76.38,220714,,,A*56
Uvv      00154020 $GPGGA,091914.000,2225.9105,S,04734.2247,W,1,08,0.9,597.6,M,-4.1,M,,0000*4E
Uvv      00156313 $GPRMC,091916.000,A,2225.9099,S,04734.2252,W,0.44,76.38,220714,,,A*52
Uvv      00157015 $GPGGA,091917.000,2225.9099,S,04734.2258,W,1,08,0.9,598.2,M,-4.1,M,,0000*4C
Uvv      00159308 $GPRMC,091919.000,A,2225.9098,S,04734.2259,W,0.39,76.38,220714,,,A*5D
Uvv      00160026 $GPGGA,091920.000,2225.9098,S,04734.2260,W,1,08,0.9,598.4,M,-4.1,M,,0000*44
Uvv      00162304 $GPRMC,091922.000,A,2225.9096,S,04734.2259,W,0.69,76.38,220714,,,A*5E
Uvv      00163021 $GPGGA,091923.000,2225.9094,S,04734.2259,W,1,08,0.9,597.8,M,-4.1,M,,0000*42
Uvv      00165704 $GPRMC,091925.000,A,2225.9094,S,04734.2258,W,0.49,76.38,220714,,,A*58
Uvv      00166016 $GPGGA,091926.000,2225.9097,S,04734.2259,W,1,08,0.9,597.2,M,-4.1,M,,0000*4E
Uvv      00168341 $GPRMC,091928.000,A,2225.9104,S,04734.2260,W,0.86,76.38,220714,,,A*55
Uvv      00169012 $GPGGA,091929.000,2225.9105,S,04734.2261,W,1,08,0.9,596.7,M,-4.1,M,,0000*44
Uvv      00171320 $GPRMC,091931.000,A,2225.9106,S,04734.2266,W,0.78,76.38,220714,,,A*58
Uvv      00172038 $GPGGA,091932.000,2225.9103,S,04734.2267,W,1,08,0.9,596.8,M,-4.1,M,,0000*41
Uvv      00174316 $GPRMC,091934.000,A,2225.9099,S,04734.2266,W,1.48,70.67,220714,,,A*54
Uvv      00175033 $GPGGA,091935.000,2225.9096,S,04734.2266,W,1,08,0.9,596.3,M,-4.1,M,,0000*41
Uvv      00177326 $GPRMC,091937.000,A,2225.9095,S,04734.2267,W,0.35,70.67,220714,,,A*51
Uvv      00178013 $GPGGA,091938.000,2225.9095,S,04734.2264,W,1,08,0.9,596.8,M,-4.1,M,,0000*46
Uvv      00180696 $GPRMC,091940.000,A,2225.9100,S,04734.2262,W,0.54,70.67,220714,,,A*5E
Uvv      00181024 $GPGGA,091941.000,2225.9101,S,04734.2263,W,1,08,0.9,597.6,M,-4.1,M,,0000*4C
Uvv      00183301 $GPRMC,091943.000,A,2225.9106,S,04734.2265,W,0.33,70.67,220714,,,A*5D
Uvv      00184019 $GPGGA,091944.000,2225.9107,S,04734.2264,W,1,08,0.9,598.0,M,-4.1,M,,0000*41
Uvv      00186297 $GPRMC,091946.000,A,2225.9112,S,04734.2258,W,0.66,70.67,220714,,,A*53
Uvv      00187030 $GPGGA,091947.000,2225.9113,S,04734.2256,W,1,07,1.0,597.9,M,-4.1,M,,0000*47
Uvv      00189323 $GPRMC,091949.000,A,2225.9116,S,04734.2250,W,0.09,70.67,220714,,,A*59
Uvv      00190041 $GPGGA,091950.000,2225.9117,S,04734.2248,W,1,08,0.9,598.0,M,-4.1,M,,0000*4B
Uvv      00192303 $GPRMC,091952.000,A,2225.9119,S,04734.2250,W,0.85,70.67,220714,,,A*58
Uvv      00193020 $GPGGA,091953.000,2225.9120,S,04734.2251,W,1,08,0.9,598.5,M,-4.1,M,,0000*41
Uvv      00195688 $GPRMC,091955.000,A,2225.9124,S,04734.2245,W,0.36,70.67,220714,,,A*5D
Uvv      00196015 $GPGGA,091956.000,2225.9124,S,04734.2242,W,1,08,0.9,598.3,M,-4.1,M,,0000*44
Uvv      00198309 $GPRMC,091958.000,A,2225.9125,S,04734.2242,W,0.46,70.67,220714,,,A*51
Uvv      00199026 $GPGGA,091959.000,2225.9126,S,04734.2244,W,1,08,0.9,599.0,M,-4.1,M,,0000*4D
Uvv      00201304 $GPRMC,092001.000,A,2225.9132,S,04734.2244,W,0.58,70.67,220714,,,A*58
Uvv      00202021 $GPGGA,092002.000,2225.9133,S,04734.2245,W,1,08,0.9,600.0,M,-4.1,M,,0000*4F
Uvv      00204299 $GPRMC,092004.000,A,2225.9134,S,04734.2247,W,0.45,70.67,220714,,,A*54
Uvv      00205017 $GPGGA,092005.000,2225.9135,S,04734.2248,W,1,07,1.0,600.4,M,-4.1,M,,0000*40
Uvv      00207294 $GPRMC,092007.000,A,2225.9141,S,04734.2250,W,0.67,70.67,220714,,,A*53
Uvv      00208012 $GPGGA,092008.000,2225.9142,S,04734.2251,W,1,08,0.9,600.8,M,-4.1,M,,0000*4E
Uvv      00210695 $GPRMC,092010.000,A,2225.9141,S,04734.2247,W,0.57,70.67,220714,,,A*50
Uvv      00211023 $GPGGA,092011.000,2225.9142,S,04734.2248,W,1,08,0.9,601.0,M,-4.1,M,,0000*47
Uvv      00213300 $GPRMC,092013.000,A,2225.9147,S,04734.2250,W,0.34,70.67,220714,,,A*56
Uvv      00214018 $GPGGA,092014.000,2225.9149,S,04734.2252,W,1,08,0.9,601.2,M,-4.1,M,,0000*40
Uvv      00216311 $GPRMC,092016.000,A,2225.9152,S,04734.2254,W,0.34,70.67,220714,,,A*53
Uvv      00217013 $GPGGA,092017.000,2225.9151,S,04734.2256,W,1,08,0.9,602.1,M,-4.1,M,,0000*4E
Uvv      00219306 $GPRMC,092019.000,A,2225.9150,S,04734.2255,W,0.42,70.67,220714,,,A*5E
Uvv      00220040 $GPGGA,092020.000,2225.9150,S,04734.2255,W,1,08,0.9,603.0,M,-4.1,M,,0000*48
Uvv      00222317 $GPRMC,092022.000,A,2225.9148,S,04734.2256,W,0.52,70.67,220714,,,A*5D
Uvv      00223035 $GPGGA,092023.000,2225.9146,S,04734.2255,W,1,08,0.9,604.0,M,-4.1,M,,0000*4B
Uvv      00225702 $GPRMC,092025.000,A,2225.9145,S,04734.2251,W,1.07,70.67,220714,,,A*51
Uvv      00226014 $GPGGA,092026.000,2225.9144,S,04734.2247,W,1,08,0.9,604.8,M,-4.1,M,,0000*47
Uvv      00228323 $GPRMC,092028.000,A,2225.9143,S,04734.2245,W,0.19,70.67,220714,,,A*51
Uvv      00229025 $GPGGA,092029.000,2225.9146,S,04734.2243,W,1,08,0.9,605.7,M,-4.1,M,,0000*40
Uvv      00231303 $GPRMC,092031.000,A,2225.9147,S,04734.2241,W,0.27,87.69,220714,,,A*52
Uvv      00232020 $GPGGA,092032.000,2225.9147,S,04734.2242,W,1,08,0.9,606.2,M,-4.1,M,,0000*4C
Uvv      00234314 $GPRMC,092034.000,A,2225.9141,S,04734.2247,W,1.01,87.69,220714,,,A*52
Uvv      00235094 $GPGGA,092035.000,2225.9138,S,04734.2248,W,1,08,0.9,607.2,M,-4.1,M,,0000*48
Uvv      00237324 $GPRMC,092037.000,A,2225.9136,S,04734.2249,W,0.25,87.69,220714,,,A*58
Uvv      00238026 $GPGGA,092038.000,2225.9132,S,04734.2250,W,1,08,0.9,607.9,M,-4.1,M,,0000*4D
Uvv      00240710 $GPRMC,092040.000,A,2225.9126,S,04734.2254,W,0.11,87.69,220714,,,A*52
Uvv      00241037 $GPGGA,092041.000,2225.9122,S,04734.2256,W,1,08,0.9,608.4,M,-4.1,M,,0000*46
Uvv      00243299 $GPRMC,092043.000,A,2225.9115,S,04734.2261,W,0.33,87.69,220714,,,A*57
Uvv      00244048 $GPGGA,092044.000,2225.9113,S,04734.2261,W,1,07,1.0,608.5,M,-4.1,M,,0000*43
Uvv      00246310 $GPRMC,092046.000,A,2225.9112,S,04734.2263,W,1.18,105.57,220714,,,A*69
Uvv      00247012 $GPGGA,092047.000,2225.9112,S,04734.2264,W,1,07,1.0,607.6,M,-4.1,M,,0000*48
Uvv      00249305 $GPRMC,092049.000,A,2225.9110,S,04734.2264,W,0.22,105.57,220714,,,A*6B
Uvv      00250039 $GPGGA,092050.000,2225.9103,S,04734.2267,W,1,08,0.9,607.5,M,-4.1,M,,0000*49
Uvv      00252316 $GPRMC,092052.000,A,2225.9096,S,04734.2274,W,0.37,105.57,220714,,,A*6B
Uvv      00253018 $GPGGA,092053.000,2225.9093,S,04734.2278,W,1,08,0.9,607.0,M,-4.1,M,,0000*49
Uvv      00255701 $GPRMC,092055.000,A,2225.9085,S,04734.2280,W,0.55,105.57,220714,,,A*61
Uvv      00256013 $GPGGA,092056.000,2225.9081,S,04734.2280,W,1,08,0.9,606.8,M,-4.1,M,,0000*41
Uvv      00258307 $GPRMC,092058.000,A,2225.9074,S,04734.2282,W,0.27,105.57,220714,,,A*65
Uvv      00259024 $GPGGA,092059.000,2225.9073,S,04734.2283,W,1,08,0.9,606.9,M,-4.1,M,,0000*41
Uvv      00261302 $GPRMC,092101.000,A,2225.9076,S,04734.2281,W,0.36,105.57,220714,,,A*69
Uvv      00262019 $GPGGA,092102.000,2225.9075,S,04734.2281,W,1,08,0.9,606.8,M,-4.1,M,,0000*4B
Uvv      00264313 $GPRMC,092104.000,A,2225.9075,S,04734.2281,W,0.10,105.57,220714,,,A*6B
Uvv      00265015 $GPGGA,092105.000,2225.9076,S,04734.2282,W,1,08,0.9,605.6,M,-4.1,M,,0000*41
Uvv      00267308 $GPRMC,092107.000,A,2225.9076,S,04734.2285,W,0.12,105.57,220714,,,A*6D
Uvv      00268010 $GPGGA,092108.000,2225.9076,S,04734.2285,W,1,07,1.0,604.2,M,-4.1,M,,0000*49
Uvv      00270693 $GPRMC,092110.000,A,2225.9077,S,04734.2284,W,0.30,105.57,220714,,,A*6B
Uvv      00271021 $GPGGA,092111.000,2225.9077,S,04734.2284,W,1,07,1.0,603.7,M,-4.1,M,,0000*43
Uvv      00273314 $GPRMC,092113.000,A,2225.9077,S,04734.2284,W,1.15,105.57,220714,,,A*6E
Uvv      00274016 $GPGGA,092114.000,2225.9077,S,04734.2283,W,1,07,1.0,603.8,M,-4.1,M,,0000*4E
Uvv      00276325 $GPRMC,092116.000,A,2225.9077,S,04734.2282,W,0.81,105.57,220714,,,A*61
Uvv      00277027 $GPGGA,092117.000,2225.9076,S,04734.2280,W,1,08,0.9,603.1,M,-4.1,M,,0000*41
Uvv      00279320 $GPRMC,092119.000,A,2225.9073,S,04734.2279,W,0.62,105.57,220714,,,A*63
Uvv      00280022 $GPGGA,092120.000,2225.9072,S,04734.2278,W,1,08,0.9,603.0,M,-4.1,M,,0000*47
Uvv      00282315 $GPRMC,092122.000,A,2225.9072,S,04734.2279,W,0.19,105.57,220714,,,A*66
Uvv      00283017 $GPGGA,092123.000,2225.9072,S,04734.2280,W,1,08,0.9,602.9,M,-4.1,M,,0000*4B
Uvv      00285700 $GPRMC,092125.000,A,2225.9071,S,04734.2282,W,0.31,105.57,220714,,,A*6C
Uvv      00286012 $GPGGA,092126.000,2225.9069,S,04734.2283,W,1,08,0.9,602.7,M,-4.1,M,,0000*49
Uvv      00288321 $GPRMC,092128.000,A,2225.9068,S,04734.2282,W,0.30,105.57,220714,,,A*68
Uvv      00289023 $GPGGA,092129.000,2225.9071,S,04734.2283,W,1,08,0.9,602.9,M,-4.1,M,,0000*41
Uvv      00291316 $GPRMC,092131.000,A,2225.9071,S,04734.2285,W,0.87,105.57,220714,,,A*63
Uvv      00292034 $GPGGA,092132.000,2225.9071,S,04734.2286,W,1,08,0.9,602.8,M,-4.1,M,,0000*4F
Uvv      00294327 $GPRMC,092134.000,A,2225.9074,S,04734.2289,W,0.46,105.57,220714,,,A*62
Uvv      00295014 $GPGGA,092135.000,2225.9075,S,04734.2287,W,1,07,1.0,602.7,M,-4.1,M,,0000*45
Uvv      00297307 $GPRMC,092137.000,A,2225.9076,S,04734.2292,W,0.23,105.57,220714,,,A*6A
Uvv      00298009 $GPGGA,092138.000,2225.9077,S,04734.2295,W,1,07,1.0,602.9,M,-4.1,M,,0000*47
Uvv      00300692 $GPRMC,092140.000,A,2225.9084,S,04734.2299,W,1.93,133.57,220714,,,A*63
Uvv      00301035 $GPGGA,092141.000,2225.9087,S,04734.2297,W,1,07,1.3,602.9,M,-4.1,M,,0000*47
Uvv      00303297 $GPRMC,092143.000,A,2225.9088,S,04734.2297,W,0.54,133.57,220714,,,A*68
Uvv      00304015 $GPGGA,092144.000,2225.9089,S,04734.2297,W,1,07,1.3,602.8,M,-4.1,M,,0000*4D
Uvv      00306308 $GPRMC,092146.000,A,2225.9091,S,04734.2296,W,0.77,133.57,220714,,,A*65
Uvv      00307010 $GPGGA,092147.000,2225.9094,S,04734.2297,W,1,08,0.9,603.1,M,-4.1,M,,0000*4E
Uvv      00309303 $GPRMC,092149.000,A,2225.9100,S,04734.2296,W,0.65,133.57,220714,,,A*60
Uvv      00310021 $GPGGA,092150.000,2225.9102,S,04734.2294,W,1,08,0.9,603.3,M,-4.1,M,,0000*47
Uvv      00312314 $GPRMC,092152.000,A,2225.9106,S,04734.2290,W,0.84,133.57,220714,,,A*65
Uvv      00313016 $GPGGA,092153.000,2225.9106,S,04734.2289,W,1,08,0.9,603.4,M,-4.1,M,,0000*4B
Uvv      00315684 $GPRMC,092155.000,A,2225.9109,S,04734.2285,W,0.75,133.57,220714,,,A*67
Uvv      00316011 $GPGGA,092156.000,2225.9109,S,04734.2284,W,1,07,1.3,603.1,M,-4.1,M,,0000*4D
Uvv      00318305 $GPRMC,092158.000,A,2225.9110,S,04734.2285,W,0.51,133.57,220714,,,A*64
Uvv      00319022 $GPGGA,092159.000,2225.9111,S,04734.2284,W,1,07,1.3,602.2,M,-4.1,M,,0000*49
Uvv      00321315 $GPRMC,092201.000,A,2225.9114,S,04734.2280,W,0.58,133.57,220714,,,A*63
Uvv      00322017 $GPGGA,092202.000,2225.9117,S,04734.2278,W,1,06,1.5,600.8,M,-4.1,M,,0000*4E
Uvv      00324311 $GPRMC,092204.000,A,2225.9122,S,04734.2271,W,0.94,133.57,220714,,,A*6D
Uvv      00325044 $GPGGA,092205.000,2225.9126,S,04734.2268,W,1,07,1.2,599.6,M,-4.1,M,,0000*41
Uvv      00327306 $GPRMC,092207.000,A,2225.9133,S,04734.2261,W,0.30,133.57,220714,,,A*61
Uvv      00328023 $GPGGA,092208.000,2225.9134,S,04734.2260,W,1,06,1.5,598.1,M,-4.1,M,,0000*47
Uvv      00330691 $GPRMC,092210.000,A,2225.9134,S,04734.2258,W,0.05,133.57,220714,,,A*6C
Uvv      00331019 $GPGGA,092211.000,2225.9133,S,04734.2257,W,1,06,1.5,597.1,M,-4.1,M,,0000*43
Uvv      00333296 $GPRMC,092213.000,A,2225.9133,S,04734.2254,W,0.29,133.57,220714,,,A*6A
Uvv      00334014 $GPGGA,092214.000,2225.9133,S,04734.2254,W,1,06,1.5,596.4,M,-4.1,M,,0000*41
Uvv      00336292 $GPRMC,092216.000,A,2225.9132,S,04734.2253,W,0.47,133.57,220714,,,A*61
Uvv      00337009 $GPGGA,092217.000,2225.9130,S,04734.2252,W,1,06,1.5,595.7,M,-4.1,M,,0000*47
Uvv      00339302 $GPRMC,092219.000,A,2225.9131,S,04734.2254,W,0.43,133.57,220714,,,A*6E
Uvv      00340020 $GPGGA,092220.000,2225.9131,S,04734.2252,W,1,06,1.5,595.0,M,-4.1,M,,0000*45
Uvv      00342298 $GPRMC,092222.000,A,2225.9133,S,04734.2249,W,0.32,133.57,220714,,,A*6E
Uvv      00343031 $GPGGA,092223.000,2225.9134,S,04734.2248,W,1,06,1.5,594.3,M,-4.1,M,,0000*4A
Uvv      00345683 $GPRMC,092225.000,A,2225.9137,S,04734.2246,W,0.92,133.57,220714,,,A*68
Uvv      00346010 $GPGGA,092226.000,2225.9138,S,04734.2244,W,1,06,1.5,593.8,M,-4.1,M,,0000*43
Uvv      00348288 $GPRMC,092228.000,A,2225.9138,S,04734.2244,W,0.35,133.84,220714,,,A*6B
Uvv      00349021 $GPGGA,092229.000,2225.9138,S,04734.2244,W,1,07,1.2,593.3,M,-4.1,M,,0000*41
Uvv      00351299 $GPRMC,092231.000,A,2225.9138,S,04734.2240,W,1.13,130.70,220714,,,A*6A
Uvv      00352032 $GPGGA,092232.000,2225.9138,S,04734.2238,W,1,07,1.2,593.5,M,-4.1,M,,0000*46
Uvv      00354294 $GPRMC,092234.000,A,2225.9135,S,04734.2241,W,0.77,130.70,220714,,,A*60
Uvv      00355012 $GPGGA,092235.000,2225.9133,S,04734.2243,W,1,06,1.5,593.3,M,-4.1,M,,0000*46
Uvv      00357289 $GPRMC,092237.000,A,2225.9135,S,04734.2249,W,0.37,130.70,220714,,,A*6F
Uvv      00358007 $GPGGA,092238.000,2225.9137,S,04734.2251,W,1,06,1.5,592.9,M,-4.1,M,,0000*47
Uvv      00360690 $GPRMC,092240.000,A,2225.9135,S,04734.2255,W,0.28,130.70,220714,,,A*6C
Uvv      00361018 $GPGGA,092241.000,2225.9134,S,04734.2257,W,1,07,1.2,592.1,M,-4.1,M,,0000*42
Uvv      00363404 $GPRMC,092243.000,A,2225.9132,S,04734.2263,W,1.23,149.31,220714,,,A*6C
Uvv      00364013 $GPGGA,092244.000,2225.9130,S,04734.2265,W,1,07,1.2,590.9,M,-4.1,M,,0000*48
Uvv      00366291 $GPRMC,092246.000,A,2225.9128,S,04734.2266,W,0.17,149.31,220714,,,A*61
Uvv      00367008 $GPGGA,092247.000,2225.9128,S,04734.2266,W,1,06,1.5,590.1,M,-4.1,M,,0000*4F
Uvv      00369286 $GPRMC,092249.000,A,2225.9131,S,04734.2266,W,0.39,149.31,220714,,,A*6A
Uvv      00370019 $GPGGA,092250.000,2225.9132,S,04734.2267,W,1,06,1.5,590.1,M,-4.1,M,,0000*43
Uvv      00372312 $GPRMC,092252.000,A,2225.9138,S,04734.2265,W,0.84,155.60,220714,,,A*65
Uvv      00373014 $GPGGA,092253.000,2225.9140,S,04734.2261,W,1,06,1.5,590.4,M,-4.1,M,,0000*46
Uvv      00375697 $GPRMC,092255.000,A,2225.9145,S,04734.2259,W,0.10,155.60,220714,,,A*6A
Uvv      00376041 $GPGGA,092256.000,2225.9147,S,04734.2256,W,1,06,1.4,589.8,M,-4.1,M,,0000*45
Uvv      00378318 $GPRMC,092258.000,A,2225.9148,S,04734.2250,W,0.88,155.60,220714,,,A*62
Uvv      00379020 $GPGGA,092259.000,2225.9143,S,04734.2249,W,1,07,1.0,590.9,M,-4.1,M,,0000*4C
Uvv      00381313 $GPRMC,092301.000,A,2225.9138,S,04734.2249,W,0.61,155.60,220714,,,A*67
Uvv      00382015 $GPGGA,092302.000,2225.9136,S,04734.2247,W,1,07,1.0,591.4,M,-4.1,M,,0000*43
Uvv      00384309 $GPRMC,092304.000,A,2225.9130,S,04734.2244,W,0.70,155.60,220714,,,A*67
Uvv      00385011 $GPGGA,092305.000,2225.9128,S,04734.2244,W,1,07,1.0,591.7,M,-4.1,M,,0000*4B
Uvv      00387304 $GPRMC,092307.000,A,2225.9125,S,04734.2243,W,0.40,155.60,220714,,,A*64
Uvv      00388021 $GPGGA,092308.000,2225.9124,S,04734.2242,W,1,07,1.0,592.5,M,-4.1,M,,0000*4D
Uvv      00390689 $GPRMC,092310.000,A,2225.9121,S,04734.2242,W,0.15,155.60,220714,,,A*67
Uvv      00391017 $GPGGA,092311.000,2225.9119,S,04734.2242,W,1,06,1.4,593.3,M,-4.1,M,,0000*49
Uvv      00393310 $GPRMC,092313.000,A,2225.9114,S,04734.2247,W,0.65,155.60,220714,,,A*60
Uvv      00394012 $GPGGA,092314.000,2225.9112,S,04734.2249,W,1,08,0.9,592.7,M,-4.1,M,,0000*4B
Uvv      00396321 $GPRMC,092316.000,A,2225.9109,S,04734.2263,W,0.14,155.60,220714,,,A*69
Uvv      00397023 $GPGGA,092317.000,2225.9110,S,04734.2271,W,1,08,0.9,591.7,M,-4.1,M,,0000*42
Uvv      00399316 $GPRMC,092319.000,A,2225.9110,S,04734.2272,W,0.00,155.60,220714,,,A*6B
Uvv      00400018 $GPGGA,092320.000,2225.9110,S,04734.2272,W,1,08,0.9,591.7,M,-4.1,M,,0000*45
Uvv      00400892 $_MARK,32881273,32361144,31711264
Uvv      00402311 $GPRMC,092322.000,A,2225.9110,S,04734.2272,W,0.00,155.60,220714,,,A*63
Uvv      00403029 $GPGGA,092323.000,2225.9110,S,04734.2272,W,1,08,0.9,591.8,M,-4.1,M,,0000*49
Uvv      00405696 $GPRMC,092325.000,A,2225.9110,S,04734.2273,W,0.00,155.60,220714,,,A*65
Uvv      00406040 $GPGGA,092326.000,2225.9110,S,04734.2273,W,1,08,0.9,591.8,M,-4.1,M,,0000*4D
Uvv      00407147 $_MARK,32881273,32361144
Uvv      00408317 $GPRMC,092328.000,A,2225.9110,S,04734.2273,W,0.00,155.60,220714,,,A*68
Uvv      00409019 $GPGGA,092329.000,2225.9110,S,04734.2273,W,1,08,0.9,591.9,M,-4.1,M,,0000*43
Uvv      00411312 $GPRMC,092331.000,A,2225.9110,S,04734.2273,W,0.00,155.60,220714,,,A*60
Uvv      00411546 $_MARK,32881273
Uvv      00412014 $GPGGA,092332.000,2225.9110,S,04734.2273,W,1,08,0.9,591.9,M,-4.1,M,,0000*49
Uvv      00413590 $_MARK
Uvv      00414308 $GPRMC,092334.000,A,2225.9109,S,04734.2273,W,0.00,155.60,220714,,,A*6D
Uvv      00415025 $GPGGA,092335.000,2225.9109,S,04734.2273,W,1,08,0.9,591.9,M,-4.1,M,,0000*46
Uvv      00417303 $GPRMC,092337.000,A,2225.9109,S,04734.2273,W,0.00,155.60,220714,,,A*6E
Uvv      00418020 $GPGGA,092338.000,2225.9109,S,04734.2274,W,1,08,0.9,591.9,M,-4.1,M,,0000*4C
Uvv      00420704 $GPRMC,092340.000,A,2225.9109,S,04734.2274,W,0.00,155.60,220714,,,A*69
Uvv      00421031 $GPGGA,092341.000,2225.9109,S,04734.2274,W,1,08,0.9,591.9,M,-4.1,M,,0000*42
Uvv      00423324 $GPRMC,092343.000,A,2225.9109,S,04734.2274,W,0.00,155.60,220714,,,A*6A
Uvv      00424042 $GPGGA,092344.000,2225.9109,S,04734.2274,W,1,08,0.9,591.9,M,-4.1,M,,0000*47
Uvv      00426335 $GPRMC,092346.000,A,2225.9109,S,04734.2274,W,0.00,155.60,220714,,,A*6F
Uvv      00427037 $GPGGA,092347.000,2225.9109,S,04734.2274,W,1,08,0.9,591.9,M,-4.1,M,,0000*44
Uvv      00429315 $GPRMC,092349.000,A,2225.9109,S,04734.2274,W,0.00,155.60,220714,,,A*60
Uvv      00430033 $GPGGA,092350.000,2225.9109,S,04734.2274,W,1,08,0.9,591.9,M,-4.1,M,,0000*42
Uvv      00432310 $GPRMC,092352.000,A,2225.9109,S,04734.2274,W,0.00,155.60,220714,,,A*6A
Uvv      00433012 $GPGGA,092353.000,2225.9109,S,04734.2274,W,1,08,0.9,592.0,M,-4.1,M,,0000*4B
Uvv      00435695 $GPRMC,092355.000,A,2225.9107,S,04734.2281,W,0.21,155.60,220714,,,A*6A
Uvv      00436023 $GPGGA,092356.000,2225.9105,S,04734.2281,W,1,08,0.9,594.3,M,-4.1,M,,0000*4D
Uvv      00438316 $GPRMC,092358.000,A,2225.9096,S,04734.2283,W,0.01,155.60,220714,,,A*6E
Uvv      00439034 $GPGGA,092359.000,2225.9096,S,04734.2283,W,1,08,0.9,595.9,M,-4.1,M,,0000*40
Uvv      00441311 $GPRMC,092401.000,A,2225.9096,S,04734.2283,W,0.00,155.60,220714,,,A*64
Uvv      00442013 $GPGGA,092402.000,2225.9095,S,04734.2283,W,1,08,0.9,595.9,M,-4.1,M,,0000*4A
Uvv      00444307 $GPRMC,092404.000,A,2225.9095,S,04734.2283,W,0.00,155.60,220714,,,A*62
Uvv      00445024 $GPGGA,092405.000,2225.9095,S,04734.2283,W,1,08,0.9,595.9,M,-4.1,M,,0000*4D
Uvv      00447317 $GPRMC,092407.000,A,2225.9095,S,04734.2283,W,0.00,155.60,220714,,,A*61
Uvv      00448019 $GPGGA,092408.000,2225.9095,S,04734.2283,W,1,08,0.9,595.9,M,-4.1,M,,0000*40
Uvv      00450703 $GPRMC,092410.000,A,2225.9095,S,04734.2284,W,0.00,155.60,220714,,,A*60
Uvv      00451015 $GPGGA,092411.000,2225.9095,S,04734.2284,W,1,08,0.9,595.9,M,-4.1,M,,0000*4F
Uvv      00453323 $GPRMC,092413.000,A,2225.9095,S,04734.2284,W,0.00,155.60,220714,,,A*63
Uvv      00454025 $GPGGA,092414.000,2225.9095,S,04734.2284,W,1,08,0.9,595.9,M,-4.1,M,,0000*4A
Uvv      00456319 $GPRMC,092416.000,A,2225.9095,S,04734.2284,W,0.00,155.60,220714,,,A*66
Uvv      00457021 $GPGGA,092417.000,2225.9094,S,04734.2284,W,1,08,0.9,595.9,M,-4.1,M,,0000*48
Uvv      00459314 $GPRMC,092419.000,A,2225.9094,S,04734.2284,W,0.00,155.60,220714,,,A*68
Uvv      00460016 $GPGGA,092420.000,2225.9087,S,04734.2287,W,1,08,0.9,596.1,M,-4.1,M,,0000*46
Uvv      00462309 $GPRMC,092422.000,A,2225.9078,S,04734.2287,W,0.43,155.60,220714,,,A*66
Uvv      00463011 $GPGGA,092423.000,2225.9073,S,04734.2287,W,1,08,0.9,597.0,M,-4.1,M,,0000*4E
Uvv      00465694 $GPRMC,092425.000,A,2225.9070,S,04734.2291,W,0.36,155.60,220714,,,A*6C
Uvv      00466022 $GPGGA,092426.000,2225.9070,S,04734.2293,W,1,08,0.9,597.8,M,-4.1,M,,0000*45
Uvv      00468315 $GPRMC,092428.000,A,2225.9069,S,04734.2296,W,0.01,155.60,220714,,,A*6A
Uvv      00469017 $GPGGA,092429.000,2225.9069,S,04734.2296,W,1,08,0.9,598.2,M,-4.1,M,,0000*42
Uvv      00471326 $GPRMC,092431.000,A,2225.9069,S,04734.2295,W,0.16,155.60,220714,,,A*67
Uvv      00472012 $GPGGA,092432.000,2225.9068,S,04734.2293,W,1,08,0.9,597.8,M,-4.1,M,,0000*49
Uvv      00474321 $GPRMC,092434.000,A,2225.9067,S,04734.2291,W,0.36,155.60,220714,,,A*6A
Uvv      00475008 $GPGGA,092435.000,2225.9068,S,04734.2292,W,1,08,0.9,597.3,M,-4.1,M,,0000*44
Uvv      00477332 $GPRMC,092437.000,A,2225.9068,S,04734.2292,W,0.33,155.60,220714,,,A*60
Uvv      00478034 $GPGGA,092438.000,2225.9069,S,04734.2292,W,1,08,0.9,596.8,M,-4.1,M,,0000*42
Uvv      00480702 $GPRMC,092440.000,A,2225.9069,S,04734.2292,W,0.00,155.60,220714,,,A*61
Uvv      00481029 $GPGGA,092441.000,2225.9069,S,04734.2292,W,1,08,0.9,596.9,M,-4.1,M,,0000*4D
Uvv      00483307 $GPRMC,092443.000,A,2225.9069,S,04734.2292,W,0.00,155.60,220714,,,A*62
Uvv      00484024 $GPGGA,092444.000,2225.9069,S,04734.2292,W,1,08,0.9,596.9,M,-4.1,M,,0000*48
Uvv      00486302 $GPRMC,092446.000,A,2225.9069,S,04734.2292,W,0.00,155.60,220714,,,A*67
Uvv      00487020 $GPGGA,092447.000,2225.9069,S,04734.2292,W,1,08,0.9,596.8,M,-4.1,M,,0000*4A
Uvv      00489313 $GPRMC,092449.000,A,2225.9069,S,04734.2292,W,0.00,155.60,220714,,,A*68
Uvv      00490030 $GPGGA,092450.000,2225.9069,S,04734.2292,W,1,08,0.9,596.8,M,-4.1,M,,0000*4C
Uvv      00492308 $GPRMC,092452.000,A,2225.9069,S,04734.2292,W,0.00,155.60,220714,,,A*62
Uvv      00493041 $GPGGA,092453.000,2225.9068,S,04734.2292,W,1,08,0.9,596.8,M,-4.1,M,,0000*4E
Uvv      00495693 $GPRMC,092455.000,A,2225.9068,S,04734.2293,W,0.00,155.60,220714,,,A*65
Uvv      00496037 $GPGGA,092456.000,2225.9068,S,04734.2293,W,1,08,0.9,596.8,M,-4.1,M,,0000*4A
Uvv      00498314 $GPRMC,092458.000,A,2225.9068,S,04734.2293,W,0.00,155.60,220714,,,A*68
Uvv      00499032 $GPGGA,092459.000,2225.9069,S,04734.2293,W,1,08,0.9,596.8,M,-4.1,M,,0000*44
Uvv      00501309 $GPRMC,092501.000,A,2225.9069,S,04734.2293,W,0.00,155.60,220714,,,A*64
Uvv      00502011 $GPGGA,092502.000,2225.9069,S,04734.2293,W,1,08,0.9,596.9,M,-4.1,M,,0000*4A
Uvv      00504305 $GPRMC,092504.000,A,2225.9069,S,04734.2293,W,0.00,155.60,220714,,,A*61
Uvv      00505022 $GPGGA,092505.000,2225.9069,S,04734.2293,W,1,08,0.9,596.9,M,-4.1,M,,0000*4D
Uvv      00507315 $GPRMC,092507.000,A,2225.9069,S,04734.2293,W,0.00,155.60,220714,,,A*62
Uvv      00508017 $GPGGA,092508.000,2225.9069,S,04734.2293,W,1,08,0.9,597.0,M,-4.1,M,,0000*48
Uvv      00510701 $GPRMC,092510.000,A,2225.9069,S,04734.2294,W,0.00,155.60,220714,,,A*63
Uvv      00511013 $GPGGA,092511.000,2225.9069,S,04734.2294,W,1,08,0.9,597.0,M,-4.1,M,,0000*47
Uvv      00513306 $GPRMC,092513.000,A,2225.9069,S,04734.2294,W,0.00,155.60,220714,,,A*60
Uvv      00514023 $GPGGA,092514.000,2225.9069,S,04734.2294,W,1,08,0.9,597.1,M,-4.1,M,,0000*43
Uvv      00516395 $GPRMC,092516.000,A,2225.9069,S,04734.2294,W,0.00,155.60,220714,,,A*65
Uvv      00517019 $GPGGA,092517.000,2225.9069,S,04734.2294,W,1,08,0.9,597.1,M,-4.1,M,,0000*40
Uvv      00519312 $GPRMC,092519.000,A,2225.9069,S,04734.2294,W,0.00,155.60,220714,,,A*6A
Uvv      00520029 $GPGGA,092520.000,2225.9069,S,04734.2294,W,1,08,0.9,597.2,M,-4.1,M,,0000*47
Uvv      00522307 $GPRMC,092522.000,A,2225.9069,S,04734.2294,W,0.00,155.60,220714,,,A*62
Uvv      00523040 $GPGGA,092523.000,2225.9069,S,04734.2294,W,1,08,0.9,597.2,M,-4.1,M,,0000*44
Uvv      00525692 $GPRMC,092525.000,A,2225.9069,S,04734.2295,W,0.00,155.60,220714,,,A*64
Uvv      00526020 $GPGGA,092526.000,2225.9068,S,04734.2295,W,1,08,0.9,597.3,M,-4.1,M,,0000*40
Uvv      00528344 $GPRMC,092528.000,A,2225.9068,S,04734.2295,W,0.00,155.60,220714,,,A*68
Uvv      00529031 $GPGGA,092529.000,2225.9068,S,04734.2295,W,1,08,0.9,597.3,M,-4.1,M,,0000*4F
Uvv      00531324 $GPRMC,092531.000,A,2225.9068,S,04734.2295,W,0.00,155.60,220714,,,A*60
Uvv      00532010 $GPGGA,092532.000,2225.9068,S,04734.2295,W,1,08,0.9,597.4,M,-4.1,M,,0000*42
Uvv      00534304 $GPRMC,092534.000,A,2225.9068,S,04734.2295,W,0.00,155.60,220714,,,A*65
Uvv      00535021 $GPGGA,092535.000,2225.9068,S,04734.2295,W,1,08,0.9,597.5,M,-4.1,M,,0000*44
Uvv      00537314 $GPRMC,092537.000,A,2225.9068,S,04734.2296,W,0.00,155.60,220714,,,A*65
Uvv      00538016 $GPGGA,092538.000,2225.9066,S,04734.2296,W,1,08,0.9,598.0,M,-4.1,M,,0000*4E
Uvv      00540715 $GPRMC,092540.000,A,2225.9066,S,04734.2296,W,0.00,155.60,220714,,,A*6B
Uvv      00541012 $GPGGA,092541.000,2225.9066,S,04734.2296,W,1,08,0.9,598.1,M,-4.1,M,,0000*41
Uvv      00543320 $GPRMC,092543.000,A,2225.9065,S,04734.2298,W,0.34,155.60,220714,,,A*62
Uvv      00544022 $GPGGA,092544.000,2225.9065,S,04734.2298,W,1,08,0.9,599.0,M,-4.1,M,,0000*49
Uvv      00546316 $GPRMC,092546.000,A,2225.9064,S,04734.2302,W,0.01,155.60,220714,,,A*62
Uvv      00547018 $GPGGA,092547.000,2225.9064,S,04734.2302,W,1,08,0.9,600.1,M,-4.1,M,,0000*4B
Uvv      00549326 $GPRMC,092549.000,A,2225.9064,S,04734.2302,W,0.00,155.60,220714,,,A*6C
Uvv      00550013 $GPGGA,092550.000,2225.9064,S,04734.2305,W,1,08,0.9,600.9,M,-4.1,M,,0000*42
Uvv      00552322 $GPRMC,092552.000,A,2225.9064,S,04734.2305,W,0.00,155.60,220714,,,A*61
Uvv      00553024 $GPGGA,092553.000,2225.9064,S,04734.2305,W,1,08,0.9,600.9,M,-4.1,M,,0000*41
Uvv      00555691 $GPRMC,092555.000,A,2225.9062,S,04734.2305,W,0.24,155.60,220714,,,A*66
Uvv      00556019 $GPGGA,092556.000,2225.9062,S,04734.2305,W,1,08,0.9,602.0,M,-4.1,M,,0000*49
Uvv      00558312 $GPRMC,092558.000,A,2225.9062,S,04734.2305,W,0.00,155.60,220714,,,A*6D
Uvv      00559014 $GPGGA,092559.000,2225.9062,S,04734.2305,W,1,08,0.9,602.0,M,-4.1,M,,0000*46
Uvv      00561307 $GPRMC,092601.000,A,2225.9062,S,04734.2305,W,0.00,155.60,220714,,,A*62
Uvv      00562025 $GPGGA,092602.000,2225.9062,S,04734.2305,W,1,08,0.9,602.1,M,-4.1,M,,0000*4A
Uvv      00564303 $GPRMC,092604.000,A,2225.9062,S,04734.2305,W,0.00,155.60,220714,,,A*67
Uvv      00565020 $GPGGA,092605.000,2225.9062,S,04734.2305,W,1,08,0.9,602.1,M,-4.1,M,,0000*4D
Uvv      00567313 $GPRMC,092607.000,A,2225.9062,S,04734.2305,W,0.00,155.60,220714,,,A*64
Uvv      00568015 $GPGGA,092608.000,2225.9062,S,04734.2305,W,1,08,0.9,602.1,M,-4.1,M,,0000*40
Uvv      00570699 $GPRMC,092610.000,A,2225.9062,S,04734.2305,W,0.00,155.60,220714,,,A*62
Uvv      00571026 $GPGGA,092611.000,2225.9062,S,04734.2305,W,1,08,0.9,602.1,M,-4.1,M,,0000*48
Uvv      00573304 $GPRMC,092613.000,A,2225.9062,S,04734.2304,W,0.00,155.60,220714,,,A*60
Uvv      00574037 $GPGGA,092614.000,2225.9062,S,04734.2304,W,1,08,0.9,602.1,M,-4.1,M,,0000*4C
Uvv      00576299 $GPRMC,092616.000,A,2225.9065,S,04734.2303,W,0.47,155.60,220714,,,A*66
Uvv      00577017 $GPGGA,092617.000,2225.9068,S,04734.2301,W,1,08,0.9,601.5,M,-4.1,M,,0000*47
Uvv      00579310 $GPRMC,092619.000,A,2225.9068,S,04734.2301,W,0.00,155.60,220714,,,A*65
Uvv      00580027 $GPGGA,092620.000,2225.9068,S,04734.2301,W,1,08,0.9,601.5,M,-4.1,M,,0000*43
Uvv      00582321 $GPRMC,092622.000,A,2225.9068,S,04734.2301,W,0.00,155.60,220714,,,A*6D
Uvv      00583007 $GPGGA,092623.000,2225.9068,S,04734.2301,W,1,08,0.9,601.5,M,-4.1,M,,0000*40
Uvv      00585690 $GPRMC,092625.000,A,2225.9068,S,04734.2301,W,0.00,155.60,220714,,,A*6A
Uvv      00586018 $GPGGA,092626.000,2225.9068,S,04734.2301,W,1,08,0.9,601.5,M,-4.1,M,,0000*45
Uvv      00588296 $GPRMC,092628.000,A,2225.9070,S,04734.2298,W,0.24,155.60,220714,,,A*69
Uvv      00589013 $GPGGA,092629.000,2225.9070,S,04734.2295,W,1,08,0.9,602.4,M,-4.1,M,,0000*4D
Uvv      00591322 $GPRMC,092631.000,A,2225.9069,S,04734.2295,W,0.33,155.60,220714,,,A*62
Uvv      00592008 $GPGGA,092632.000,2225.9069,S,04734.2294,W,1,08,0.9,602.5,M,-4.1,M,,0000*4F
Uvv      00594302 $GPRMC,092634.000,A,2225.9067,S,04734.2292,W,0.05,155.60,220714,,,A*6B
Uvv      00595019 $GPGGA,092635.000,2225.9068,S,04734.2291,W,1,08,0.9,603.3,M,-4.1,M,,0000*4B
Uvv      00597312 $GPRMC,092637.000,A,2225.9068,S,04734.2292,W,0.64,155.60,220714,,,A*60
Uvv      00598014 $GPGGA,092638.000,2225.9067,S,04734.2292,W,1,08,0.9,604.1,M,-4.1,M,,0000*4F
Uvv      00600698 $GPRMC,092640.000,A,2225.9072,S,04734.2288,W,1.07,155.60,220714,,,A*64
Uvv      00601010 $GPGGA,092641.000,2225.9073,S,04734.2288,W,1,08,0.9,604.3,M,-4.1,M,,0000*4D
Uvv      00603303 $GPRMC,092643.000,A,2225.9072,S,04734.2291,W,0.32,155.60,220714,,,A*68
Uvv      00604036 $GPGGA,092644.000,2225.9071,S,04734.2294,W,1,08,0.9,605.5,M,-4.1,M,,0000*40
Uvv      00606298 $GPRMC,092646.000,A,2225.9069,S,04734.2300,W,0.70,155.60,220714,,,A*68
Uvv      00607031 $GPGGA,092647.000,2225.9069,S,04734.2300,W,1,08,0.9,606.3,M,-4.1,M,,0000*43
Uvv      00609309 $GPRMC,092649.000,A,2225.9069,S,04734.2300,W,0.00,155.60,220714,,,A*60
Uvv      00610011 $GPGGA,092650.000,2225.9069,S,04734.2300,W,1,08,0.9,606.3,M,-4.1,M,,0000*45
Uvv      00612304 $GPRMC,092652.000,A,2225.9069,S,04734.2299,W,0.00,155.60,220714,,,A*6B
Uvv      00613022 $GPGGA,092653.000,2225.9069,S,04734.2299,W,1,08,0.9,606.3,M,-4.1,M,,0000*47
Uvv      00615705 $GPRMC,092655.000,A,2225.9069,S,04734.2299,W,0.00,155.60,220714,,,A*6C
Uvv      00616017 $GPGGA,092656.000,2225.9069,S,04734.2299,W,1,08,0.9,606.3,M,-4.1,M,,0000*42
Uvv      00618310 $GPRMC,092658.000,A,2225.9069,S,04734.2299,W,0.00,155.60,220714,,,A*61
Uvv      00619075 $GPGGA,092659.000,2225.9069,S,04734.2299,W,1,08,0.9,606.3,M,-4.1,M,,0000*4D
Uvv      00621305 $GPRMC,092701.000,A,2225.9069,S,04734.2299,W,0.00,155.60,220714,,,A*6C
Uvv      00622039 $GPGGA,092702.000,2225.9069,S,04734.2299,W,1,08,0.9,606.4,M,-4.1,M,,0000*45
Uvv      00624301 $GPRMC,092704.000,A,2225.9069,S,04734.2299,W,0.00,155.60,220714,,,A*69
Uvv      00625034 $GPGGA,092705.000,2225.9069,S,04734.2299,W,1,08,0.9,606.4,M,-4.1,M,,0000*42
Uvv      00627311 $GPRMC,092707.000,A,2225.9069,S,04734.2299,W,0.00,155.60,220714,,,A*6A
Uvv      00628013 $GPGGA,092708.000,2225.9069,S,04734.2299,W,1,08,0.9,606.4,M,-4.1,M,,0000*4F
Uvv      00630712 $GPRMC,092710.000,A,2225.9069,S,04734.2299,W,0.00,155.60,220714,,,A*6C
Uvv      00631024 $GPGGA,092711.000,2225.9069,S,04734.2299,W,1,08,0.9,606.5,M,-4.1,M,,0000*46
Uvv      00633302 $GPRMC,092713.000,A,2225.9069,S,04734.2299,W,0.00,155.60,220714,,,A*6F
Uvv      00634019 $GPGGA,092714.000,2225.9070,S,04734.2299,W,1,08,0.9,606.5,M,-4.1,M,,0000*4B
Uvv      00636313 $GPRMC,092716.000,A,2225.9070,S,04734.2299,W,0.00,155.60,220714,,,A*62
Uvv      00637015 $GPGGA,092717.000,2225.9070,S,04734.2300,W,1,08,0.9,606.5,M,-4.1,M,,0000*49
Uvv      00639308 $GPRMC,092719.000,A,2225.9070,S,04734.2300,W,0.00,155.60,220714,,,A*6C
Uvv      00640010 $GPGGA,092720.000,2225.9070,S,04734.2300,W,1,08,0.9,606.5,M,-4.1,M,,0000*4D
Uvv      00642319 $GPRMC,092722.000,A,2225.9070,S,04734.2300,W,0.00,155.60,220714,,,A*64
Uvv      00643021 $GPGGA,092723.000,2225.9070,S,04734.2300,W,1,08,0.9,606.5,M,-4.1,M,,0000*4E
Uvv      00645704 $GPRMC,092725.000,A,2225.9070,S,04734.2300,W,0.00,155.60,220714,,,A*63
Uvv      00646016 $GPGGA,092726.000,2225.9070,S,04734.2300,W,1,08,0.9,606.5,M,-4.1,M,,0000*4B
Uvv      00648309 $GPRMC,092728.000,A,2225.9070,S,04734.2300,W,0.00,155.60,220714,,,A*6E
Uvv      00649011 $GPGGA,092729.000,2225.9070,S,04734.2300,W,1,08,0.9,606.5,M,-4.1,M,,0000*44
Uvv      00651320 $GPRMC,092731.000,A,2225.9070,S,04734.2300,W,0.00,155.60,220714,,,A*66
Uvv      00652022 $GPGGA,092732.000,2225.9070,S,04734.2300,W,1,08,0.9,606.6,M,-4.1,M,,0000*4D
Uvv      00654300 $GPRMC,092734.000,A,2225.9070,S,04734.2300,W,0.00,155.60,220714,,,A*63
Uvv      00655033 $GPGGA,092735.000,2225.9070,S,04734.2300,W,1,08,0.9,606.6,M,-4.1,M,,0000*4A
Uvv      00657310 $GPRMC,092737.000,A,2225.9070,S,04734.2300,W,0.00,155.60,220714,,,A*60
Uvv      00658028 $GPGGA,092738.000,2225.9070,S,04734.2300,W,1,08,0.9,606.5,M,-4.1,M,,0000*44
Uvv      00660696 $GPRMC,092740.000,A,2225.9070,S,04734.2300,W,0.00,155.60,220714,,,A*60
Uvv      00661008 $GPGGA,092741.000,2225.9070,S,04734.2300,W,1,08,0.9,606.5,M,-4.1,M,,0000*4A
Uvv      00663301 $GPRMC,092743.000,A,2225.9070,S,04734.2300,W,0.00,155.60,220714,,,A*63
Uvv      00664018 $GPGGA,092744.000,2225.9070,S,04734.2300,W,1,08,0.9,606.5,M,-4.1,M,,0000*4F
Uvv      00666312 $GPRMC,092746.000,A,2225.9070,S,04734.2300,W,0.00,155.60,220714,,,A*66
Uvv      00667014 $GPGGA,092747.000,2225.9070,S,04734.2300,W,1,08,0.9,606.5,M,-4.1,M,,0000*4C
Uvv      00669307 $GPRMC,092749.000,A,2225.9070,S,04734.2300,W,0.00,155.60,220714,,,A*69
Uvv      00670009 $GPGGA,092750.000,2225.9070,S,04734.2300,W,1,08,0.9,606.5,M,-4.1,M,,0000*4A
Uvv      00672302 $GPRMC,092752.000,A,2225.9070,S,04734.2299,W,0.00,155.60,220714,,,A*62
Uvv      00673035 $GPGGA,092753.000,2225.9070,S,04734.2299,W,1,08,0.9,606.5,M,-4.1,M,,0000*48
Uvv      00675718 $GPRMC,092755.000,A,2225.9070,S,04734.2299,W,0.00,155.60,220714,,,A*65
Uvv      00676015 $GPGGA,092756.000,2225.9070,S,04734.2299,W,1,08,0.9,606.5,M,-4.1,M,,0000*4D
Uvv      00678308 $GPRMC,092758.000,A,2225.9070,S,04734.2299,W,0.00,155.60,220714,,,A*68
Uvv      00679041 $GPGGA,092759.000,2225.9070,S,04734.2299,W,1,08,0.9,606.5,M,-4.1,M,,0000*42
Uvv      00681319 $GPRMC,092801.000,A,2225.9070,S,04734.2299,W,0.00,155.60,220714,,,A*6B
Uvv      00682037 $GPGGA,092802.000,2225.9070,S,04734.2299,W,1,08,0.9,606.5,M,-4.1,M,,0000*43
Uvv      00684299 $GPRMC,092804.000,A,2225.9070,S,04734.2299,W,0.00,155.60,220714,,,A*6E
Uvv      00685016 $GPGGA,092805.000,2225.9070,S,04734.2299,W,1,08,0.9,606.4,M,-4.1,M,,0000*45
Uvv      00687309 $GPRMC,092807.000,A,2225.9070,S,04734.2299,W,0.00,155.60,220714,,,A*6D
Uvv      00688011 $GPGGA,092808.000,2225.9070,S,04734.2299,W,1,08,0.9,606.4,M,-4.1,M,,0000*48
Uvv      00690695 $GPRMC,092810.000,A,2225.9070,S,04734.2299,W,0.00,155.60,220714,,,A*6B
Uvv      00691022 $GPGGA,092811.000,2225.9070,S,04734.2299,W,1,08,0.9,606.4,M,-4.1,M,,0000*40
Uvv      00693300 $GPRMC,092813.000,A,2225.9070,S,04734.2299,W,0.00,155.60,220714,,,A*68
Uvv      00694033 $GPGGA,092814.000,2225.9070,S,04734.2299,W,1,08,0.9,606.4,M,-4.1,M,,0000*45
Uvv      00696311 $GPRMC,092816.000,A,2225.9070,S,04734.2299,W,0.00,155.60,220714,,,A*6D
Uvv      00697013 $GPGGA,092817.000,2225.9070,S,04734.2299,W,1,08,0.9,606.4,M,-4.1,M,,0000*46
Uvv      00699306 $GPRMC,092819.000,A,2225.9070,S,04734.2299,W,0.00,155.60,220714,,,A*62
Uvv      00700008 $GPGGA,092820.000,2225.9069,S,04734.2299,W,1,08,0.9,606.4,M,-4.1,M,,0000*4A
Uvv      00702301 $GPRMC,092822.000,A,2225.9069,S,04734.2299,W,0.00,155.60,220714,,,A*62
Uvv      00703034 $GPGGA,092823.000,2225.9069,S,04734.2299,W,1,08,0.9,606.4,M,-4.1,M,,0000*49
Uvv      00705702 $GPRMC,092825.000,A,2225.9069,S,04734.2299,W,0.00,155.60,220714,,,A*65
Uvv      00706029 $GPGGA,092826.000,2225.9069,S,04734.2299,W,1,08,0.9,606.4,M,-4.1,M,,0000*4C
Uvv      00708323 $GPRMC,092828.000,A,2225.9069,S,04734.2299,W,0.00,155.60,220714,,,A*68
Uvv      00709009 $GPGGA,092829.000,2225.9069,S,04734.2299,W,1,08,0.9,606.4,M,-4.1,M,,0000*43
Uvv      00711302 $GPRMC,092831.000,A,2225.9069,S,04734.2299,W,0.00,155.60,220714,,,A*60
Uvv      00712020 $GPGGA,092832.000,2225.9069,S,04734.2299,W,1,08,0.9,606.4,M,-4.1,M,,0000*49
Uvv      00714298 $GPRMC,092834.000,A,2225.9069,S,04734.2304,W,0.60,155.60,220714,,,A*66
Uvv      00715015 $GPGGA,092835.000,2225.9069,S,04734.2304,W,1,08,0.9,606.9,M,-4.1,M,,0000*46
Uvv      00717308 $GPRMC,092837.000,A,2225.9068,S,04734.2306,W,0.27,155.60,220714,,,A*65
Uvv      00718010 $GPGGA,092838.000,2225.9068,S,04734.2308,W,1,08,0.9,607.0,M,-4.1,M,,0000*4E
Uvv      00720694 $GPRMC,092840.000,A,2225.9067,S,04734.2308,W,0.00,155.60,220714,,,A*61
Uvv      00721006 $GPGGA,092841.000,2225.9066,S,04734.2310,W,1,08,0.9,606.9,M,-4.1,M,,0000*4F
Uvv      00723299 $GPRMC,092843.000,A,2225.9066,S,04734.2310,W,0.00,155.60,220714,,,A*6A
Uvv      00724032 $GPGGA,092844.000,2225.9066,S,04734.2310,W,1,08,0.9,606.9,M,-4.1,M,,0000*4A
Uvv      00726310 $GPRMC,092846.000,A,2225.9066,S,04734.2310,W,0.00,155.60,220714,,,A*6F
Uvv      00727012 $GPGGA,092847.000,2225.9066,S,04734.2310,W,1,08,0.9,607.0,M,-4.1,M,,0000*41
Uvv      00729336 $GPRMC,092849.000,A,2225.9065,S,04734.2310,W,0.99,155.60,220714,,,A*63
Uvv      00730022 $GPGGA,092850.000,2225.9063,S,04734.2306,W,1,08,0.9,606.7,M,-4.1,M,,0000*43
Uvv      00732300 $GPRMC,092852.000,A,2225.9062,S,04734.2305,W,0.76,117.05,220714,,,A*6E
Uvv      00733018 $GPGGA,092853.000,2225.9065,S,04734.2304,W,1,08,0.9,606.0,M,-4.1,M,,0000*43
Uvv      00735701 $GPRMC,092855.000,A,2225.9074,S,04734.2299,W,1.87,182.69,220714,,,A*63
Uvv      00736013 $GPGGA,092856.000,2225.9077,S,04734.2299,W,1,08,0.9,604.8,M,-4.1,M,,0000*4A
Uvv      00738306 $GPRMC,092858.000,A,2225.9082,S,04734.2296,W,1.68,182.27,220714,,,A*63
Uvv      00739008 $GPGGA,092859.000,2225.9087,S,04734.2296,W,1,08,0.9,604.1,M,-4.1,M,,0000*4C
Uvv      00741301 $GPRMC,092901.000,A,2225.9096,S,04734.2295,W,2.22,187.20,220714,,,A*67
Uvv      00742019 $GPGGA,092902.000,2225.9100,S,04734.2295,W,1,08,0.9,603.8,M,-4.1,M,,0000*40
Uvv      00744297 $GPRMC,092904.000,A,2225.9107,S,04734.2295,W,1.37,198.13,220714,,,A*62
Uvv      00745030 $GPGGA,092905.000,2225.9107,S,04734.2300,W,1,08,0.9,603.1,M,-4.1,M,,0000*44
Uvv      00747307 $GPRMC,092907.000,A,2225.9092,S,04734.2316,W,2.13,220.36,220714,,,A*64
Uvv      00748009 $GPGGA,092908.000,2225.9088,S,04734.2328,W,1,08,0.9,601.7,M,-4.1,M,,0000*41
Uvv      00750693 $GPRMC,092910.000,A,2225.9080,S,04734.2340,W,1.93,230.96,220714,,,A*62
Uvv      00751005 $GPGGA,092911.000,2225.9078,S,04734.2345,W,1,08,0.9,601.4,M,-4.1,M,,0000*4E
Uvv      00753298 $GPRMC,092913.000,A,2225.9074,S,04734.2352,W,0.68,231.86,220714,,,A*6C
Uvv      00754031 $GPGGA,092914.000,2225.9069,S,04734.2353,W,1,08,0.9,601.0,M,-4.1,M,,0000*48
Uvv      00756309 $GPRMC,092916.000,A,2225.9064,S,04734.2349,W,1.44,228.82,220714,,,A*61
Uvv      00757011 $GPGGA,092917.000,2225.9061,S,04734.2348,W,1,08,0.9,600.5,M,-4.1,M,,0000*4D
Uvv      00759304 $GPRMC,092919.000,A,2225.9067,S,04734.2348,W,1.78,227.56,220714,,,A*65
Uvv      00760006 $GPGGA,092920.000,2225.9074,S,04734.2348,W,1,08,0.9,600.3,M,-4.1,M,,0000*4B
Uvv      00762299 $GPRMC,092922.000,A,2225.9083,S,04734.2340,W,1.66,216.71,220714,,,A*67
Uvv      00763017 $GPGGA,092923.000,2225.9084,S,04734.2334,W,1,08,0.9,599.6,M,-4.1,M,,0000*4A
Uvv      00765684 $GPRMC,092925.000,A,2225.9091,S,04734.2330,W,0.86,210.53,220714,,,A*6D
Uvv      00766012 $GPGGA,092926.000,2225.9094,S,04734.2328,W,1,08,0.9,600.7,M,-4.1,M,,0000*41
Uvv      00768305 $GPRMC,092928.000,A,2225.9094,S,04734.2322,W,0.75,210.53,220714,,,A*6A
Uvv      00769007 $GPGGA,092929.000,2225.9092,S,04734.2316,W,1,08,0.9,602.1,M,-4.1,M,,0000*41
Uvv      00771300 $GPRMC,092931.000,A,2225.9099,S,04734.2306,W,2.14,200.77,220714,,,A*6B
Uvv      00772018 $GPGGA,092932.000,2225.9102,S,04734.2302,W,1,08,0.9,602.3,M,-4.1,M,,0000*44
Uvv      00774296 $GPRMC,092934.000,A,2225.9096,S,04734.2307,W,0.70,200.77,220714,,,A*60
Uvv      00775029 $GPGGA,092935.000,2225.9097,S,04734.2307,W,1,08,0.9,602.7,M,-4.1,M,,0000*4F
Uvv      00777322 $GPRMC,092937.000,A,2225.9102,S,04734.2306,W,0.88,200.77,220714,,,A*69
Uvv      00778008 $GPGGA,092938.000,2225.9105,S,04734.2305,W,1,08,0.9,603.8,M,-4.1,M,,0000*44
Uvv      00780723 $GPRMC,092940.000,A,2225.9109,S,04734.2308,W,0.40,200.77,220714,,,A*68
Uvv      00781019 $GPGGA,092941.000,2225.9103,S,04734.2316,W,1,08,0.9,604.3,M,-4.1,M,,0000*42
Uvv      00783312 $GPRMC,092943.000,A,2225.9087,S,04734.2313,W,0.02,200.77,220714,,,A*60
Uvv      00784030 $GPGGA,092944.000,2225.9086,S,04734.2313,W,1,08,0.9,605.8,M,-4.1,M,,0000*44
Uvv      00786308 $GPRMC,092946.000,A,2225.9086,S,04734.2313,W,0.00,200.77,220714,,,A*66
Uvv      00787010 $GPGGA,092947.000,2225.9086,S,04734.2313,W,1,08,0.9,605.8,M,-4.1,M,,0000*47
Uvv      00789303 $GPRMC,092949.000,A,2225.9086,S,04734.2313,W,0.00,200.77,220714,,,A*69
Uvv      00790005 $GPGGA,092950.000,2225.9084,S,04734.2314,W,1,08,0.9,606.0,M,-4.1,M,,0000*4F
Uvv      00792298 $GPRMC,092952.000,A,2225.9083,S,04734.2313,W,0.84,200.77,220714,,,A*6A
Uvv      00793016 $GPGGA,092953.000,2225.9084,S,04734.2313,W,1,08,0.9,606.2,M,-4.1,M,,0000*49
Uvv      00795699 $GPRMC,092955.000,A,2225.9084,S,04734.2313,W,0.00,200.77,220714,,,A*66
Uvv      00796026 $GPGGA,092956.000,2225.9084,S,04734.2313,W,1,08,0.9,606.2,M,-4.1,M,,0000*4C
Uvv      00798304 $GPRMC,092958.000,A,2225.9083,S,04734.2312,W,0.42,200.77,220714,,,A*6B
Uvv      00799022 $GPGGA,092959.000,2225.9083,S,04734.2311,W,1,08,0.9,606.5,M,-4.1,M,,0000*41
Uvv      00801299 $GPRMC,093001.000,A,2225.9083,S,04734.2311,W,0.69,200.77,220714,,,A*65
Uvv      00802017 $GPGGA,093002.000,2225.9085,S,04734.2310,W,1,08,0.9,604.9,M,-4.1,M,,0000*4E
Uvv      00804310 $GPRMC,093004.000,A,2225.9091,S,04734.2305,W,1.04,200.77,220714,,,A*6C
Uvv      00805028 $GPGGA,093005.000,2225.9095,S,04734.2302,W,1,08,0.9,603.4,M,-4.1,M,,0000*41
Uvv      00807321 $GPRMC,093007.000,A,2225.9104,S,04734.2292,W,0.56,200.77,220714,,,A*6B
Uvv      00808023 $GPGGA,093008.000,2225.9104,S,04734.2292,W,1,08,0.9,602.2,M,-4.1,M,,0000*4A
Uvv      00810691 $GPRMC,093010.000,A,2225.9107,S,04734.2280,W,0.68,200.77,220714,,,A*60
Uvv      00811018 $GPGGA,093011.000,2225.9110,S,04734.2276,W,1,08,0.9,601.5,M,-4.1,M,,0000*49
Uvv      00813296 $GPRMC,093013.000,A,2225.9110,S,04734.2276,W,0.00,200.77,220714,,,A*62
Uvv      00814013 $GPGGA,093014.000,2225.9112,S,04734.2274,W,1,08,0.9,601.4,M,-4.1,M,,0000*4D
Uvv      00816307 $GPRMC,093016.000,A,2225.9118,S,04734.2275,W,0.55,200.77,220714,,,A*6C
Uvv      00817009 $GPGGA,093017.000,2225.9118,S,04734.2275,W,1,08,0.9,601.8,M,-4.1,M,,0000*49
Uvv      00819302 $GPRMC,093019.000,A,2225.9119,S,04734.2275,W,0.00,200.77,220714,,,A*62
Uvv      00820019 $GPGGA,093020.000,2225.9119,S,04734.2275,W,1,08,0.9,601.8,M,-4.1,M,,0000*4C
Uvv      00822297 $GPRMC,093022.000,A,2225.9119,S,04734.2275,W,0.00,200.77,220714,,,A*6A
Uvv      00823015 $GPGGA,093023.000,2225.9119,S,04734.2275,W,1,08,0.9,601.8,M,-4.1,M,,0000*4F
Uvv      00825698 $GPRMC,093025.000,A,2225.9121,S,04734.2276,W,0.45,200.77,220714,,,A*64
Uvv      00826010 $GPGGA,093026.000,2225.9121,S,04734.2276,W,1,08,0.9,601.5,M,-4.1,M,,0000*4F
Uvv      00828319 $GPRMC,093028.000,A,2225.9121,S,04734.2276,W,0.00,200.77,220714,,,A*68
Uvv      00829005 $GPGGA,093029.000,2225.9122,S,04734.2281,W,1,08,0.9,601.9,M,-4.1,M,,0000*47
Uvv      00831298 $GPRMC,093031.000,A,2225.9122,S,04734.2281,W,0.00,200.77,220714,,,A*6B
Uvv      00832031 $GPGGA,093032.000,2225.9122,S,04734.2281,W,1,08,0.9,601.9,M,-4.1,M,,0000*4D
Uvv      00834309 $GPRMC,093034.000,A,2225.9122,S,04734.2281,W,0.00,200.77,220714,,,A*6E
Uvv      00835027 $GPGGA,093035.000,2225.9122,S,04734.2281,W,1,08,0.9,601.9,M,-4.1,M,,0000*4A
Uvv      00836446 $_MARK,40531416
Uvv      00837304 $GPRMC,093037.000,A,2225.9122,S,04734.2281,W,0.00,200.77,220714,,,A*6D
Uvv      00838022 $GPGGA,093038.000,2225.9123,S,04734.2281,W,1,08,0.9,601.9,M,-4.1,M,,0000*46
Uvv      00840721 $GPRMC,093040.000,A,2225.9123,S,04734.2281,W,0.00,200.77,220714,,,A*6C
Uvv      00841017 $GPGGA,093041.000,2225.9124,S,04734.2285,W,1,08,0.9,602.4,M,-4.1,M,,0000*45
Uvv      00843310 $GPRMC,093043.000,A,2225.9126,S,04734.2287,W,0.00,200.77,220714,,,A*6C
Uvv      00844012 $GPGGA,093044.000,2225.9126,S,04734.2287,W,1,08,0.9,602.5,M,-4.1,M,,0000*41
Uvv      00846321 $GPRMC,093046.000,A,2225.9126,S,04734.2287,W,0.00,200.77,220714,,,A*69
Uvv      00847023 $GPGGA,093047.000,2225.9126,S,04734.2291,W,1,08,0.9,602.0,M,-4.1,M,,0000*40
Uvv      00849301 $GPRMC,093049.000,A,2225.9126,S,04734.2294,W,0.45,200.77,220714,,,A*65
Uvv      00850034 $GPGGA,093050.000,2225.9126,S,04734.2295,W,1,08,0.9,601.9,M,-4.1,M,,0000*48
Uvv      00852296 $GPRMC,093052.000,A,2225.9124,S,04734.2293,W,0.44,200.77,220714,,,A*6B
Uvv      00853138 $GPGGA,093053.000,2225.9126,S,04734.2292,W,1,08,0.9,602.3,M,-4.1,M,,0000*45
Uvv      00855712 $GPRMC,093055.000,A,2225.9125,S,04734.2294,W,0.64,200.77,220714,,,A*68
Uvv      00856009 $GPGGA,093056.000,2225.9122,S,04734.2295,W,1,08,0.9,602.6,M,-4.1,M,,0000*46
Uvv      00858302 $GPRMC,093058.000,A,2225.9115,S,04734.2293,W,1.13,166.59,220714,,,A*6F
Uvv      00859020 $GPGGA,093059.000,2225.9113,S,04734.2293,W,1,08,0.9,602.6,M,-4.1,M,,0000*4D
Uvv      00861313 $GPRMC,093101.000,A,2225.9102,S,04734.2300,W,1.91,187.41,220714,,,A*63
Uvv      00862015 $GPGGA,093102.000,2225.9097,S,04734.2307,W,1,08,0.9,602.3,M,-4.1,M,,0000*46
Uvv      00864308 $GPRMC,093104.000,A,2225.9092,S,04734.2326,W,2.69,229.39,220714,,,A*66
Uvv      00865010 $GPGGA,093105.000,2225.9089,S,04734.2335,W,1,08,0.9,602.1,M,-4.1,M,,0000*4D
Uvv      00867288 $GPRMC,093107.000,A,2225.9094,S,04734.2355,W,3.25,235.36,220714,,,A*6C
Uvv      00868005 $GPGGA,093108.000,2225.9098,S,04734.2364,W,1,08,0.9,602.3,M,-4.1,M,,0000*46
Uvv      00870689 $GPRMC,093110.000,A,2225.9105,S,04734.2386,W,3.10,237.69,220714,,,A*63
Uvv      00871016 $GPGGA,093111.000,2225.9105,S,04734.2397,W,1,08,0.9,601.2,M,-4.1,M,,0000*45
Uvv      00873309 $GPRMC,093113.000,A,2225.9106,S,04734.2423,W,3.83,245.98,220714,,,A*6A
Uvv      00874011 $GPGGA,093114.000,2225.9107,S,04734.2437,W,1,08,0.9,600.7,M,-4.1,M,,0000*4B
Uvv      00876320 $GPRMC,093116.000,A,2225.9106,S,04734.2461,W,3.60,252.64,220714,,,A*61
Uvv      00877022 $GPGGA,093117.000,2225.9104,S,04734.2474,W,1,08,0.9,600.3,M,-4.1,M,,0000*48
Uvv      00879300 $GPRMC,093119.000,A,2225.9102,S,04734.2489,W,2.08,255.28,220714,,,A*6C
Uvv      00880017 $GPGGA,093120.000,2225.9105,S,04734.2495,W,1,08,0.9,600.2,M,-4.1,M,,0000*43
Uvv      00882311 $GPRMC,093122.000,A,2225.9114,S,04734.2518,W,2.24,252.34,220714,,,A*6E
Uvv      00883028 $GPGGA,093123.000,2225.9115,S,04734.2530,W,1,08,0.9,601.8,M,-4.1,M,,0000*44
Uvv      00885696 $GPRMC,093125.000,A,2225.9114,S,04734.2548,W,3.28,253.00,220714,,,A*67
Uvv      00886023 $GPGGA,093126.000,2225.9115,S,04734.2558,W,1,08,0.9,602.0,M,-4.1,M,,0000*44
Uvv      00888301 $GPRMC,093128.000,A,2225.9124,S,04734.2575,W,3.07,251.41,220714,,,A*6D
Uvv      00889065 $GPGGA,093129.000,2225.9129,S,04734.2586,W,1,08,0.9,601.2,M,-4.1,M,,0000*46
Uvv      00891296 $GPRMC,093131.000,A,2225.9135,S,04734.2606,W,3.47,250.55,220714,,,A*62
Uvv      00892014 $GPGGA,093132.000,2225.9135,S,04734.2618,W,1,08,0.9,600.8,M,-4.1,M,,0000*4E
Uvv      00894307 $GPRMC,093134.000,A,2225.9142,S,04734.2633,W,2.82,247.59,220714,,,A*63
Uvv      00895009 $GPGGA,093135.000,2225.9152,S,04734.2640,W,1,08,0.9,600.2,M,-4.1,M,,0000*4F
Uvv      00897318 $GPRMC,093137.000,A,2225.9158,S,04734.2654,W,0.81,239.76,220714,,,A*6F
Uvv      00898020 $GPGGA,093138.000,2225.9159,S,04734.2654,W,1,08,0.9,599.4,M,-4.1,M,,0000*49
Uvv      00900703 $GPRMC,093140.000,A,2225.9166,S,04734.2650,W,1.88,234.46,220714,,,A*60
Uvv      00901031 $GPGGA,093141.000,2225.9168,S,04734.2646,W,1,08,0.9,599.3,M,-4.1,M,,0000*41
Uvv      00903308 $GPRMC,093143.000,A,2225.9168,S,04734.2634,W,2.03,206.43,220714,,,A*6B
Uvv      00904010 $GPGGA,093144.000,2225.9167,S,04734.2625,W,1,08,0.9,598.8,M,-4.1,M,,0000*44
Uvv      00906319 $GPRMC,093146.000,A,2225.9170,S,04734.2610,W,3.15,164.09,220714,,,A*6E
Uvv      00907006 $GPGGA,093147.000,2225.9174,S,04734.2603,W,1,08,0.9,599.0,M,-4.1,M,,0000*48
Uvv      00909299 $GPRMC,093149.000,A,2225.9188,S,04734.2592,W,3.13,158.53,220714,,,A*69
Uvv      00910032 $GPGGA,093150.000,2225.9196,S,04734.2585,W,1,08,0.9,598.3,M,-4.1,M,,0000*4D
Uvv      00912310 $GPRMC,093152.000,A,2225.9206,S,04734.2573,W,2.58,151.77,220714,,,A*68
Uvv      00913012 $GPGGA,093153.000,2225.9214,S,04734.2570,W,1,08,0.9,598.7,M,-4.1,M,,0000*49
Uvv      00915695 $GPRMC,093155.000,A,2225.9227,S,04734.2573,W,2.25,156.73,220714,,,A*65
Uvv      00916007 $GPGGA,093156.000,2225.9234,S,04734.2573,W,1,08,0.9,599.1,M,-4.1,M,,0000*4A
Uvv      00917068 $_MARK,40531416,38651166
Uvv      00918316 $GPRMC,093158.000,A,2225.9248,S,04734.2564,W,2.21,156.02,220714,,,A*65
Uvv      00919002 $GPGGA,093159.000,2225.9255,S,04734.2559,W,1,08,0.9,598.8,M,-4.1,M,,0000*42
Uvv      00921295 $GPRMC,093201.000,A,2225.9269,S,04734.2549,W,2.21,154.41,220714,,,A*63
Uvv      00922013 $GPGGA,093202.000,2225.9275,S,04734.2546,W,1,08,0.9,598.6,M,-4.1,M,,0000*4D
Uvv      00924306 $GPRMC,093204.000,A,2225.9288,S,04734.2535,W,2.94,152.48,220714,,,A*63
Uvv      00925008 $GPGGA,093205.000,2225.9295,S,04734.2531,W,1,08,0.9,598.8,M,-4.1,M,,0000*4A
Uvv      00927332 $GPRMC,093207.000,A,2225.9308,S,04734.2522,W,1.97,150.32,220714,,,A*60
Uvv      00928019 $GPGGA,093208.000,2225.9315,S,04734.2515,W,1,08,0.9,598.9,M,-4.1,M,,0000*49
Uvv      00930687 $GPRMC,093210.000,A,2225.9332,S,04734.2504,W,2.45,146.34,220714,,,A*66
Uvv      00931014 $GPGGA,093211.000,2225.9338,S,04734.2499,W,1,08,0.9,599.1,M,-4.1,M,,0000*42
Uvv      00933307 $GPRMC,093213.000,A,2225.9350,S,04734.2490,W,2.59,144.33,220714,,,A*65
Uvv      00934025 $GPGGA,093214.000,2225.9356,S,04734.2484,W,1,08,0.9,599.6,M,-4.1,M,,0000*44
Uvv      00936318 $GPRMC,093216.000,A,2225.9369,S,04734.2474,W,2.69,144.03,220714,,,A*60
Uvv      00937020 $GPGGA,093217.000,2225.9377,S,04734.2469,W,1,08,0.9,600.1,M,-4.1,M,,0000*43
Uvv      00939298 $GPRMC,093219.000,A,2225.9391,S,04734.2461,W,1.54,145.97,220714,,,A*6D
Uvv      00939906 $GPGGA,093220.000,2225.9396,S,04734.2458,W,1,08,0.9,600.4,M,-4.1,M,,0000*4F
Uvv      00942199 $GPRMC,093222.000,A,2225.9407,S,04734.2448,W,2.19,145.78,220714,,,A*6D
Uvv      00942901 $GPGGA,093223.000,2225.9414,S,04734.2444,W,1,08,0.9,600.4,M,-4.1,M,,0000*4C
Uvv      00945585 $GPRMC,093225.000,A,2225.9439,S,04734.2428,W,6.68,150.45,220714,,,A*69
Uvv      00945912 $GPGGA,093226.000,2225.9456,S,04734.2419,W,1,08,0.9,600.8,M,-4.1,M,,0000*4B
Uvv      00948205 $GPRMC,093228.000,A,2225.9493,S,04734.2402,W,4.99,154.95,220714,,,A*69
Uvv      00948923 $GPGGA,093229.000,2225.9507,S,04734.2395,W,1,08,0.9,600.9,M,-4.1,M,,0000*43
Uvv      00951216 $GPRMC,093231.000,A,2225.9532,S,04734.2392,W,3.47,159.64,220714,,,A*62
Uvv      00952012 $GPGGA,093232.000,2225.9537,S,04734.2395,W,1,08,0.9,601.3,M,-4.1,M,,0000*41
Uvv      00954196 $GPRMC,093234.000,A,2225.9538,S,04734.2400,W,0.76,168.14,220714,,,A*65
Uvv      00954913 $GPGGA,093235.000,2225.9536,S,04734.2400,W,1,08,0.9,600.5,M,-4.1,M,,0000*4B
Uvv      00957207 $GPRMC,093237.000,A,2225.9532,S,04734.2395,W,0.91,166.29,220714,,,A*6E
Uvv      00957909 $GPGGA,093238.000,2225.9530,S,04734.2397,W,1,08,0.9,601.2,M,-4.1,M,,0000*4F
Uvv      00960592 $GPRMC,093240.000,A,2225.9526,S,04734.2397,W,0.43,161.61,220714,,,A*6D
Uvv      00960904 $GPGGA,093241.000,2225.9527,S,04734.2397,W,1,07,1.0,601.3,M,-4.1,M,,0000*41
Uvv      00963197 $GPRMC,093243.000,A,2225.9534,S,04734.2397,W,1.20,162.25,220714,,,A*6A
Uvv      00963899 $GPGGA,093244.000,2225.9537,S,04734.2397,W,1,07,1.0,601.6,M,-4.1,M,,0000*40
Uvv      00966192 $GPRMC,093246.000,A,2225.9539,S,04734.2401,W,1.21,162.80,220714,,,A*64
Uvv      00966910 $GPGGA,093247.000,2225.9538,S,04734.2401,W,1,07,1.0,601.4,M,-4.1,M,,0000*46
Uvv      00969188 $GPRMC,093249.000,A,2225.9536,S,04734.2399,W,1.56,157.38,220714,,,A*67
Uvv      00969905 $GPGGA,093250.000,2225.9536,S,04734.2396,W,1,07,1.0,601.5,M,-4.1,M,,0000*46
